name,address,lat,lon,Is Early Voting,Precincts (Or Locality-wide),Is Drop Off
21ST AMENDMENT BREWERY,2010 WILLIAMS ST SAN LEANDRO CA 94577,37.71156,-122.17727,False,Locality wide location,False
ALAMEDA HIGH SCHOOL,2201 ENCINAL AVE ALAMEDA CA 94501,37.76421,-122.24704,False,Locality wide location,False
ALBANY VETERANS MEMORIAL BUILDING,1325 PORTLAND AVE ALBANY CA 94706,37.89514,-122.29102,False,Locality wide location,False
ALLEN TEMPLE,8501 INTERNATIONAL BLVD OAKLAND CA 94621,37.75247,-122.17741,False,Locality wide location,False
ALMANAC BEER COMPANY,651 W TOWER AVE ALAMEDA CA 94501,37.7832,-122.29884,False,Locality wide location,False
ALOFT SILICON VALLEY HOTEL,8200 GATEWAY BLVD NEWARK CA 94560,37.53631,-122.06293,False,Locality wide location,False
ALTAMONT CREEK ELEMENTARY SCHOOL,6500 GARAVENTA RANCH RD LIVERMORE CA 94551,37.72202,-121.71705,False,Locality wide location,False
AMERICAN HIGH SCHOOL,36300 FREMONT BLVD FREMONT CA 94536,37.56443,-122.01635,False,Locality wide location,False
ARDENWOOD ELEMENTARY SCHOOL,33955 EMILIA LN FREMONT CA 94555,37.57302,-122.05265,False,Locality wide location,False
ARROYO HIGH SCHOOL,15701 LORENZO AVE SAN LORENZO CA 94580,37.67944,-122.14035,False,Locality wide location,False
ARROYO SECO SCHOOL MULTI-PURPOSE ROOM,5280 IRENE WAY LIVERMORE CA 94550,37.68423,-121.72912,False,Locality wide location,False
ASCEND SCHOOL,3709 E 12TH ST OAKLAND CA 94601,37.77351,-122.22098,False,Locality wide location,False
Alameda County Registrar of Voters Office,1225 FALLON ST ROOM G-1 OAKLAND CA 94612,37.79968,-122.26262,False,Locality wide location,False
BARBARA LEE CENTER,2251 BANCROFT AVE SAN LEANDRO CA 94577,37.71732,-122.143,False,Locality wide location,False
"BERKELEY HIGH SCHOOL, GYM",1980 ALLSTON WAY BERKELEY CA 94704,37.86799,-122.27062,False,Locality wide location,False
BOTHWELL ARTS CENTER,2466 8TH ST LIVERMORE CA 94550,37.67694,-121.76296,False,Locality wide location,False
BROOKFIELD VILLAGE ELEMENTARY SCHOOL,401 JONES AVE OAKLAND CA 94603,37.73486,-122.18924,False,Locality wide location,False
CAL STATE EAST BAY,25800 CARLOS BEE BLVD HAYWARD CA 94542,37.65713,-122.05675,False,Locality wide location,False
CANYON MIDDLE SCHOOL,19600 CULL CANYON RD CASTRO VALLEY CA 94552,37.70539,-122.05192,False,Locality wide location,False
CASTRO VALLEY LIBRARY,3600 NORBRIDGE AVE CASTRO VALLEY CA 94546,37.69298,-122.07105,False,Locality wide location,False
CESAR CHAVEZ MIDDLE SCHOOL,2801 HOP RANCH RD UNION CITY CA 94587,37.59193,-122.04894,False,Locality wide location,False
CHABOT COLLEGE,25555 HESPERIAN BLVD HAYWARD CA 94545,37.63941,-122.10536,False,Locality wide location,False
CITY OF BERKELEY PRIVATE BUILDING,1011 UNIVERSITY AVE BERKELEY CA 94710,37.86918,-122.29361,False,Locality wide location,False
DOWNTOWN HAYWARD PUBLIC LIBRARY,888 C ST HAYWARD CA 94541,37.67079,-122.08372,False,Locality wide location,False
DUBLIN SENIOR CENTER,7600 AMADOR VALLEY BLVD DUBLIN CA 94568,37.70774,-121.93287,False,Locality wide location,False
DUBLIN UNIFIED SCHOOL DISTRICT BOARDROOM,7471 LARKDALE AVE DUBLIN CA 94568,37.71683,-121.93087,False,Locality wide location,False
E.M. GRIMMER ELEMENTARY SCHOOL,43030 NEWPORT DR FREMONT CA 94538,37.52007,-121.95132,False,Locality wide location,False
EASTMONT MALL,7200 BANCROFT AVE OAKLAND CA 94605,37.76721,-122.17793,False,Locality wide location,False
ED ROBERT CAMPUS,3075 ADELINE ST BERKELEY CA 94703,37.85244,-122.26938,False,Locality wide location,False
EDENDALE MIDDLE SCHOOL,16160 ASHLAND AVE SAN LORENZO CA 94580,37.69577,-122.11787,False,Locality wide location,False
ELMHURST MIDDLE SCHOOL,1800 98TH AVE OAKLAND CA 94603,37.74613,-122.16527,False,Locality wide location,False
ENCOUNTER CHURCH,562 LEWELLING BLVD SAN LEANDRO CA 94579,37.68613,-122.135,False,Locality wide location,False
EPWORTH UNITED METHODIST CHURCH,1953 HOPKINS ST BERKELEY CA 94707,37.88741,-122.27367,False,Locality wide location,False
EVERGREEN MISSIONARY BAPTIST CHURCH,408 W MACARTHUR BLVD OAKLAND CA 94609,37.82555,-122.26198,False,Locality wide location,False
FAIRVIEW ELEMENTARY SCHOOL,23515 MAUD AVE HAYWARD CA 94541,37.68068,-122.05294,False,Locality wide location,False
FALLON MIDDLE SCHOOL,3601 KOHNEN WAY DUBLIN CA 94568,37.71526,-121.86762,False,Locality wide location,False
FREMONT ADULT SCHOOL,4700 CALAVERAS AVE FREMONT CA 94538,37.53842,-121.99107,False,Locality wide location,False
FREMONT MAIN LIBRARY,2450 STEVENSON BLVD FREMONT CA 94538,37.55085,-121.97104,False,Locality wide location,False
"GOLDEN STATE WARRIORS, PRACTICE/TRAINING",1011 BROADWAY OAKLAND CA 94607,37.80231,-122.27397,False,Locality wide location,False
GRACEPOINT CHURCH,1275 HARBOR BAY PKWY ALAMEDA CA 94502,37.72804,-122.2341,False,Locality wide location,False
HARVEST PARK MIDDLE SCHOOL,4900 VALLEY AVE PLEASANTON CA 94566,37.67534,-121.88423,False,Locality wide location,False
HIRING HALL,1050 MATTOX RD HAYWARD CA 94541,37.68677,-122.09977,False,Locality wide location,False
ISLAMIC CENTER OF FREMONT,42412 ALBRAE ST FREMONT CA 94538,37.50933,-121.97181,False,Locality wide location,False
ISLAND HIGH SCHOOL,500 PACIFIC AVE ALAMEDA CA 94501,37.77602,-122.2819,False,Locality wide location,False
JAMES LEITCH ELEMANTARY SCHOOL,47100 FERNALD ST FREMONT CA 94539,37.48871,-121.92268,False,Locality wide location,False
JAMES LOGAN HIGH SCHOOL,1800 H ST UNION CITY CA 94587,37.59022,-122.02665,False,Locality wide location,False
JOAQUIN MILLER CENTER ASSEMBLY ROOM 1,3594 SANBORN DR OAKLAND CA 94602,37.81028,-122.18409,False,Locality wide location,False
"KAPOR ANNEX, WAREHOUSE",1901 POPLAR ST OAKLAND CA 94607,37.81445,-122.28829,False,Locality wide location,False
KENNETH C AITKEN SENIOR CENTER,17800 REDWOOD RD CASTRO VALLEY CA 94546,37.71515,-122.07269,False,Locality wide location,False
LAKESIDE PARK GARDEN VISTA ROOM,666 BELLEVUE AVE OAKLAND CA 94610,37.80706,-122.25871,False,Locality wide location,False
LAWRENCE HALL OF SCIENCE,1 CENTENNIAL DR BERKELEY CA 94720,37.87938,-122.24678,False,Locality wide location,False
"LIFE WEST COLLEGE, ENTER ON CHAWITER RD",25001 INDUSTRIAL BLVD HAYWARD CA 94545,37.63775,-122.11836,False,Locality wide location,False
LINCOLN MIDDLE SCHOOL,1250 FERNSIDE BLVD ALAMEDA CA 94501,37.75284,-122.23192,False,Locality wide location,False
"LONGFELLOW SCHOOL, GYM",1500 DERBY ST BERKELEY CA 94703,37.85851,-122.27824,False,Locality wide location,False
"M L KING,STUDENT UNION,3RD FL,PAULEY",2455 BANCROFT WAY BERKELEY CA 94704,37.86883,-122.26034,False,Locality wide location,False
MARK GREEN CENTER,31224 UNION CITY BLVD UNION CITY CA 94587,37.59344,-122.08028,False,Locality wide location,False
MARYLIN AVENUE ELEMENTARY SCHOOL,800 MARYLIN AVE LIVERMORE CA 94551,37.68456,-121.78621,False,Locality wide location,False
MILLS COLLEGE,5000 MACARTHUR BLVD OAKLAND CA 94613,37.77737,-122.18423,False,Locality wide location,False
MISSION PARADISE BANQUET HALL,31115 MISSION BLVD HAYWARD CA 94544,37.61877,-122.03663,False,Locality wide location,False
MISSION SAN JOSE ELEMENTARY SCHOOL,43545 BRYANT ST FREMONT CA 94539,37.52772,-121.92253,False,Locality wide location,False
MONTERA MIDDLE SCHOOL,5555 ASCOT DR OAKLAND CA 94611,37.8196,-122.2017,False,Locality wide location,False
NEW BEGINNINGS CHURCH,1428 61ST AVE OAKLAND CA 94621,37.76491,-122.19754,False,Locality wide location,False
NEW HAVEN ADULT SCHOOL,600 G ST UNION CITY CA 94587,37.59895,-122.01975,False,Locality wide location,False
NEWARK COMMUNITY CENTER,35501 CEDAR BLVD NEWARK CA 94560,37.54968,-122.04139,False,Locality wide location,False
NEWPARK MALL,2086 NEWPARK MALL NEWARK CA 94560,37.52648,-122.00118,False,Locality wide location,False
NORTHBRAE COMMUNITY CH  PARLOR,941 THE ALAMEDA BERKELEY CA 94707,37.89047,-122.27642,False,Locality wide location,False
OAKLAND ARENA,7000 COLISEUM WAY OAKLAND CA 94621,37.7514,-122.20089,False,Locality wide location,False
OAKLAND HIGH SCHOOL,1023 MACARTHUR BLVD OAKLAND CA 94610,37.80447,-122.2369,False,Locality wide location,False
OAKLAND TECH HIGH SCHOOL,4351 BROADWAY OAKLAND CA 94611,37.83245,-122.25453,False,Locality wide location,False
"PALMA CEIA BAPTIST CHURCH, BENNETT HALL",28605 RUUS RD HAYWARD CA 94544,37.62785,-122.06754,False,Locality wide location,False
"PALOMARES HILLS REC CENTER, CLUBHOUSE",6811 VILLAREAL DR CASTRO VALLEY CA 94552,37.70724,-122.03066,False,Locality wide location,False
PARADISE EVENT CENTER,4100 PERALTA BLVD FREMONT CA 94536,37.55627,-122.00687,False,Locality wide location,False
PIEDMONT VETERANS MEMORIAL BUILDING,401 HIGHLAND AVE PIEDMONT CA 94611,37.82459,-122.23235,False,Locality wide location,False
PLEASANTON MIDDLE SCHOOL,5001 CASE AVE PLEASANTON CA 94566,37.65329,-121.88566,False,Locality wide location,False
PRESCOTT SCHOOL,920 CAMPBELL ST OAKLAND CA 94607,37.80787,-122.29796,False,Locality wide location,False
SAN LEANDRO VETERANS MEMORIAL BUILDING,1105 BANCROFT AVE SAN LEANDRO CA 94577,37.72876,-122.14897,False,Locality wide location,False
SEQUOIA ELEMENTARY SCHOOL,3730 LINCOLN AVE OAKLAND CA 94602,37.80154,-122.2102,False,Locality wide location,False
SIKH TEMPLE,300 GURDWARA RD FREMONT CA 94536,37.58352,-121.99879,False,Locality wide location,False
SOLDIER TOWN,31 4TH ST OAKLAND CA 94607,37.79293,-122.26477,False,Locality wide location,False
SOUTH SHORE CENTER,2130 OTIS DR ALAMEDA CA 94501,37.76013,-122.2532,False,Locality wide location,False
SOUTHLAND MALL,1 SOUTHLAND MALL DR HAYWARD CA 94541,37.65058,-122.10375,False,Locality wide location,False
SPRINGTOWN AUDITORIUM,931 LARKSPUR DR LIVERMORE CA 94551,37.70627,-121.74023,False,Locality wide location,False
ST BENEDICT CHURCH,2245 82ND AVE OAKLAND CA 94605,37.76064,-122.17013,False,Locality wide location,False
"ST CLEMENTS CHURCH,  MC COLLUM HALL",738 CALHOUN ST HAYWARD CA 94544,37.64297,-122.05924,False,Locality wide location,False
"ST ELIZABETH SETON, GYM",4005 STONERIDGE DR PLEASANTON CA 94588,37.68717,-121.87538,False,Locality wide location,False
ST PETERS CHURCH MEETING ROOM,294 BROADMOOR BLVD SAN LEANDRO CA 94577,37.73678,-122.15992,False,Locality wide location,False
ST RAYMOND CATHOLIC CHURCH,11555 SHANNON AVE DUBLIN CA 94568,37.71288,-121.941,False,Locality wide location,False
"ST THERESA CHURCH, GYM",4850 CLAREWOOD DR OAKLAND CA 94618,37.83706,-122.2314,False,Locality wide location,False
SUNSET ELEMENTARY SCHOOL,1617 FRANKFURT WAY LIVERMORE CA 94550,37.6633,-121.77409,False,Locality wide location,False
THINK COLLEGE NOW,2825 INTERNATIONAL BLVD OAKLAND CA 94601,37.77947,-122.231,False,Locality wide location,False
THOMAS S HART MIDDLE SCHOOL,4433 WILLOW RD PLEASANTON CA 94588,37.68592,-121.89639,False,Locality wide location,False
UNITED CEREBRAL PALSY,4500 LINCOLN AVE OAKLAND CA 94602,37.80901,-122.2021,False,Locality wide location,False
UNITED FOR SUCCESS ACADEMY,2101 35TH AVE OAKLAND CA 94601,37.78527,-122.21803,False,Locality wide location,False
UNIVERSITY VILLAGE APPARATUS BAY,1053 MONROE ST ALBANY CA 94706,37.88426,-122.29897,False,Locality wide location,False
VALLEJO MILL ELEMENTARY SCHOOL,38569 CANYON HEIGHTS DR FREMONT CA 94536,37.57569,-121.96053,False,Locality wide location,False
VALLEY VIEW ELEMENTARY SCHOOL,480 ADAMS WAY PLEASANTON CA 94566,37.66051,-121.86222,False,Locality wide location,False
WARWICK ELEMENTARY SCHOOL,3375 WARWICK RD FREMONT CA 94555,37.57661,-122.03114,False,Locality wide location,False
WEST OAKLAND MIDDLE SCHOOL,991 14TH ST OAKLAND CA 94607,37.80838,-122.28203,False,Locality wide location,False
WILLARD MIDDLE SCHOOL,2425 STUART ST BERKELEY CA 94705,37.85992,-122.2585,False,Locality wide location,False
YMCA OF THE EAST BAY,2350 BROADWAY OAKLAND CA 94612,37.81281,-122.26547,False,Locality wide location,False
"YOUTH AND ADULT SERVICE, GYM",1170 47TH ST EMERYVILLE CA 94608,37.83553,-122.28328,False,Locality wide location,False
